[{"label":"123 Main Street, Winnipeg, Manitoba, R3C 3T8","street":"123 Main Street","city":"Winnipeg","state":"Manitoba","postal":"R3C 3T8","country":"Canada","lat":"49.8889480","lon":"-97.1342719"},{"label":"123 Main Street, Winnipeg, Manitoba, R3C 1A3","street":"123 Main Street","city":"Winnipeg","state":"Manitoba","postal":"R3C 1A3","country":"Canada","lat":"49.8889426","lon":"-97.1340611"},{"label":"123 Main Street, Ottawa, Ontario, K1S 1B9","street":"123 Main Street","city":"Ottawa","state":"Ontario","postal":"K1S 1B9","country":"Canada","lat":"45.4109460","lon":"-75.6785440"},{"label":"123 Main Street, Dartmouth, Nova Scotia, B2X 1R6","street":"123 Main Street","city":"Dartmouth","state":"Nova Scotia","postal":"B2X 1R6","country":"Canada","lat":"44.6822018","lon":"-63.5400112"},{"label":"123 Main Street, Greater Sudbury, Ontario, P0M 1L0","street":"123 Main Street","city":"Greater Sudbury","state":"Ontario","postal":"P0M 1L0","country":"Canada","lat":"46.5833142","lon":"-81.1914015"}]